City_ID,City,Lat,Lng,Max Temp,Humidity,Cloudiness,Wind Speed,Country,Date
0,bethel,41.3712,-73.414,71.96,77,0,3.44,US,1691642319
1,port-aux-francais,-49.35,70.2167,39.18,88,95,23.55,TF,1691642124
2,xilin hot,43.9667,116.0333,85.51,33,74,7.56,CN,1691642319
3,cidreira,-30.1811,-50.2056,61.07,96,100,13.0,BR,1691642320
4,edinburgh of the seven seas,-37.0676,-12.3116,50.59,59,67,22.57,SH,1691642229
5,salekhard,66.53,66.6019,63.93,50,13,13.53,RU,1691642196
6,terenos,-20.4422,-54.8603,71.31,73,0,5.75,BR,1691642320
7,kalispell,48.1958,-114.3129,62.17,81,0,4.61,US,1691642321
8,sawakin,19.1059,37.3321,97.52,43,16,11.45,SD,1691642321
9,mata-utu,-13.2816,-176.1745,82.67,75,27,10.78,WF,1691642321
10,jamestown,42.097,-79.2353,69.71,84,75,1.01,US,1691642072
11,nyurba,63.2842,118.3319,81.27,39,65,9.17,RU,1691642322
12,adamstown,-25.066,-130.1015,67.1,53,88,20.71,PN,1691642236
13,malanville,11.8685,3.3899,73.78,94,100,8.5,BJ,1691642322
14,san luis de la loma,17.2706,-100.8939,81.61,83,100,1.12,MX,1691642322
15,yellowknife,62.456,-114.3525,64.92,59,75,6.91,CA,1691642232
16,east london,-33.0153,27.9116,59.94,82,0,11.5,ZA,1691642323
17,igarka,67.4667,86.5833,65.19,75,99,8.57,RU,1691642323
18,ust-nera,64.5667,143.2,72.0,38,5,2.89,RU,1691642308
19,nova sintra,14.8667,-24.7167,72.9,73,64,13.44,CV,1691642235
20,portland,45.5234,-122.6762,72.48,75,40,8.05,US,1691642040
21,hamilton,39.1834,-84.5333,72.84,91,100,13.8,US,1691642324
22,kodiak,57.79,-152.4072,53.11,94,75,4.61,US,1691642324
23,toliara,-23.35,43.6667,69.21,76,28,14.97,MG,1691642324
24,albany,42.6001,-73.9662,65.8,86,51,1.01,US,1691642260
25,mermoz boabab,14.7065,-17.4758,80.38,78,75,4.61,SN,1691642325
26,ushuaia,-54.8,-68.3,38.86,75,0,2.3,AR,1691642257
27,los yebenes,39.5816,-3.8706,73.9,43,3,4.72,ES,1691642325
28,urengoy,65.9667,78.3667,54.03,79,100,22.95,RU,1691642326
29,badger,64.8,-147.5333,69.71,75,75,10.36,US,1691642107
30,uturoa,-16.7333,-151.4333,76.89,70,58,18.12,PF,1691642326
31,waitangi,-43.9535,-176.5597,48.81,81,4,4.9,NZ,1691642327
32,oarai,36.3167,140.6,93.49,81,50,9.82,JP,1691642327
33,kunming,25.0389,102.7183,73.33,73,75,4.47,CN,1691642327
34,mount isa,-20.7333,139.5,80.37,24,11,5.75,AU,1691642327
35,mbandaka,0.0487,18.2603,68.43,99,99,3.11,CD,1691642328
36,grytviken,-54.2811,-36.5092,23.4,88,94,4.76,GS,1691642229
37,thompson,55.7435,-97.8558,50.16,87,20,0.0,CA,1691642231
38,port mathurin,-19.6833,63.4167,72.27,75,7,9.42,MU,1691642328
39,enewetak,11.3474,162.3373,83.8,76,70,14.5,MH,1691642266
40,polyarnyy,69.1989,33.4478,67.3,70,2,7.05,RU,1691642329
41,la grange,33.0393,-85.0313,77.67,90,100,4.68,US,1691642329
42,vila franca do campo,37.7167,-25.4333,75.61,93,100,11.74,PT,1691642329
43,antonio enes,-16.2325,39.9086,72.82,73,11,10.0,MZ,1691642330
44,afaahiti,-17.75,-149.2833,76.06,70,94,15.03,PF,1691642287
45,atafu village,-8.5421,-172.5159,82.11,80,41,14.5,TK,1691642330
46,minab,27.1467,57.0801,97.29,48,0,7.25,IR,1691642330
47,vilhena,-12.7406,-60.1458,72.09,45,28,2.66,BR,1691642331
48,sarupathar,26.1984,93.8094,79.18,97,99,3.44,IN,1691642331
49,yalihuyuk,37.3008,32.0855,77.32,55,0,0.74,TR,1691642331
50,umaria,23.5333,80.8333,77.32,83,99,8.7,IN,1691642331
51,haiku-pauwela,20.9219,-156.3051,78.82,70,20,23.02,US,1691642332
52,avarua,-21.2078,-159.775,75.25,73,100,13.8,CK,1691642332
53,bredasdorp,-34.5322,20.0403,49.44,83,0,4.83,ZA,1691642122
54,vorgashor,67.5833,63.95,59.11,58,58,12.66,RU,1691642306
55,coquimbo,-29.9533,-71.3436,56.93,94,100,6.91,CL,1691642333
56,tura,25.5198,90.2201,79.47,91,99,4.61,IN,1691642333
57,kailua-kona,19.6406,-155.9956,85.96,71,75,8.05,US,1691642333
58,blackmans bay,-43.0167,147.3167,57.33,57,63,10.87,AU,1691642333
59,alakurtti,66.9672,30.3491,63.25,69,100,5.95,RU,1691642334
60,smithers,54.7804,-127.1743,61.12,59,75,4.61,CA,1691642334
61,pisco,-13.7,-76.2167,62.65,88,100,3.44,PE,1691642072
62,puerto natales,-51.7236,-72.4875,33.6,96,90,3.24,CL,1691642335
63,booue,-0.0921,11.9385,73.49,82,94,3.62,GA,1691642335
64,aasiaat,68.7098,-52.8699,36.99,94,94,10.42,GL,1691642335
65,mwene-ditu,-7.0,23.45,67.77,39,32,3.11,CD,1691642336
66,lautoka,-17.6167,177.4667,76.86,73,75,10.36,FJ,1691642336
67,iskateley,67.6803,53.1512,61.27,66,0,6.53,RU,1691642336
68,fortuna,40.5982,-124.1573,63.66,95,100,6.91,US,1691642306
69,kralendijk,12.15,-68.2667,84.18,84,56,13.8,BQ,1691642337
70,keflavik,64.0049,-22.5624,52.23,76,0,11.5,IS,1691642337
71,futtsu,35.3053,139.8186,93.6,69,46,1.03,JP,1691642337
72,happy valley-goose bay,53.3168,-60.3315,59.31,82,100,4.61,CA,1691642337
73,tiksi,71.6872,128.8694,70.29,38,22,3.69,RU,1691642235
74,west island,-12.1568,96.8225,82.38,69,82,14.97,CC,1691642338
75,evinayong,1.4368,10.5512,65.91,99,99,1.99,GQ,1691642338
76,nkove,-7.95,30.85,70.2,53,3,7.31,TZ,1691642339
77,kalmunai,7.4167,81.8167,89.17,56,99,2.73,LK,1691642339
78,bengkulu,-3.8004,102.2655,83.88,70,31,7.7,ID,1691642079
79,kurgan,55.45,65.3333,66.33,69,100,11.95,RU,1691642339
80,ilulissat,69.2167,-51.1,41.02,93,100,5.75,GL,1691642263
81,lianhe,47.1333,129.2667,67.69,95,100,3.02,CN,1691642340
82,ribeira grande,38.5167,-28.7,69.78,87,54,8.01,PT,1691642340
83,talnakh,69.4865,88.3972,63.21,41,98,13.49,RU,1691642340
84,joshimath,30.5667,79.5667,74.71,94,100,2.46,IN,1691642341
85,alice springs,-23.7,133.8833,78.35,17,0,11.5,AU,1691642341
86,luderitz,-26.6481,15.1594,64.78,58,93,7.02,NA,1691642342
87,puerto ayora,-0.7393,-90.3518,75.54,93,56,4.0,EC,1691642342
88,kisoro,-1.2854,29.685,62.55,53,68,3.18,UG,1691642342
89,lyuban',52.7985,28.0048,59.79,74,100,7.07,BY,1691642342
90,huaidian,33.4333,115.0333,91.44,56,0,3.67,CN,1691642343
91,buenos aires,-34.6132,-58.3772,58.95,94,100,11.01,AR,1691642066
92,tralee,52.2704,-9.7026,61.95,92,42,8.14,IE,1691642343
93,invercargill,-46.4,168.35,47.01,64,29,5.01,NZ,1691642343
94,chernigovka,44.3389,132.5728,70.72,97,100,2.15,RU,1691642344
95,iqaluit,63.7506,-68.5145,42.53,100,100,5.75,CA,1691642344
96,minas de marcona,-15.2119,-75.1103,53.58,90,34,11.39,PE,1691642344
97,rongelap,11.1635,166.8941,83.44,75,13,10.71,MH,1691642345
98,nanao,37.05,136.9667,100.18,55,6,7.85,JP,1691642345
99,port-vila,-17.7338,168.3219,73.0,60,75,11.5,VU,1691642345
100,tazovsky,67.4667,78.7,50.85,76,100,17.16,RU,1691642346
101,kamina,-8.7386,24.9906,61.48,42,59,4.68,CD,1691642346
102,kruisfontein,-34.0033,24.7314,53.64,77,2,7.18,ZA,1691642346
103,jilib,0.4883,42.7854,77.85,71,82,9.98,SO,1691642346
104,kayangel,8.0823,134.7173,80.83,82,81,16.62,PW,1691642347
105,manokwari,-0.8667,134.0833,81.99,76,100,5.79,ID,1691642347
106,punta arenas,-53.15,-70.9167,38.64,92,89,10.4,CL,1691642347
107,georgetown,5.4112,100.3354,84.15,83,20,5.99,MY,1691642293
108,olonkinbyen,70.9221,-8.7187,43.16,100,100,7.47,SJ,1691642250
109,korla,41.7597,86.1469,93.2,17,0,14.83,CN,1691642348
110,st. john's,47.5649,-52.7093,55.89,94,100,17.27,CA,1691642172
111,hermanus,-34.4187,19.2345,51.8,69,0,7.74,ZA,1691642348
112,monrovia,6.3005,-10.7969,76.77,85,100,14.43,LR,1691642349
113,hawaiian paradise park,19.5933,-154.9731,80.11,80,20,5.75,US,1691642259
114,ati,13.2154,18.3353,74.68,87,100,5.88,TD,1691642349
115,petropavlovsk-kamchatsky,53.0452,158.6483,68.59,56,40,15.66,RU,1691642349
116,illizi,26.4833,8.4667,75.0,16,0,6.38,DZ,1691642350
117,acajutla,13.5928,-89.8275,81.5,84,91,6.67,SV,1691642350
118,taltal,-25.4,-70.4833,57.92,89,43,1.28,CL,1691642350
119,nuuk,64.1835,-51.7216,39.81,100,100,11.5,GL,1691642350
120,ta`u,-14.2336,-169.5144,81.28,77,36,14.47,AS,1691642351
121,santa terezinha,-29.9002,-50.0904,60.57,96,100,10.71,BR,1691642351
122,erenhot,43.6475,111.9767,91.71,28,76,7.54,CN,1691642351
123,pritzwalk,53.1494,12.1741,51.58,91,9,5.28,DE,1691642351
124,colonia,50.9333,6.95,56.86,86,0,1.14,DE,1691642352
125,ocos,14.5094,-92.1933,80.78,80,76,4.81,GT,1691642352
126,mount gambier,-37.8333,140.7667,53.67,68,100,7.65,AU,1691642165
127,plymouth,41.8334,-70.8328,73.67,73,0,10.36,US,1691642352
128,tobelo,1.7284,128.0095,85.55,68,97,7.87,ID,1691642353
129,coruripe,-10.1256,-36.1756,72.63,82,36,9.82,BR,1691642353
130,tamandare,-8.7597,-35.1047,72.86,80,5,6.44,BR,1691642353
131,whitehorse,60.7161,-135.0538,66.97,43,75,10.36,CA,1691642223
132,lebu,-37.6167,-73.65,52.25,88,63,11.32,CL,1691642354
133,bilibino,68.0546,166.4372,60.84,44,98,9.08,RU,1691642354
134,touros,-5.1989,-35.4608,72.97,84,44,13.18,BR,1691642354
135,hobyo,5.3505,48.5268,79.21,72,29,21.56,SO,1691642354
136,longyearbyen,78.2186,15.6401,51.64,58,0,3.44,SJ,1691642355
137,turkmenbasy,40.0222,52.9552,88.57,40,0,4.61,TM,1691642355
138,mocimboa,-11.3167,40.35,71.13,72,16,11.48,MZ,1691642071
139,kajaani,64.2273,27.7285,59.05,100,20,2.3,FI,1691642355
140,west lynchburg,37.4032,-79.1781,73.58,90,0,0.0,US,1691642356
141,vila velha,-20.3297,-40.2925,73.35,91,40,6.91,BR,1691642356
142,margaret river,-33.95,115.0667,56.01,71,100,5.03,AU,1691642322
143,tsiombe,-25.3,45.4833,68.5,73,39,11.45,MG,1691642356
144,kharp,66.8014,65.8081,63.54,52,32,7.25,RU,1691642357
145,ploneour-lanvern,47.9,-4.2833,64.72,94,100,5.75,FR,1691642357
146,changsha,28.2,112.9667,91.56,53,12,7.76,CN,1691642358
147,bestobe,52.4994,73.0975,81.77,28,75,12.12,KZ,1691642358
148,basco,20.4487,121.9702,82.76,86,54,22.15,PH,1691642358
149,kone,-21.0595,164.8658,67.66,50,53,15.35,NC,1691642359
150,carnarvon,-24.8667,113.6333,75.42,52,1,9.35,AU,1691642359
151,nabire,-3.3667,135.4833,86.13,63,39,5.79,ID,1691642359
152,kirakira,-10.4544,161.9205,77.83,85,99,11.72,SB,1691642359
153,san patricio,28.017,-97.5169,84.92,82,0,16.8,US,1691642360
154,howrah,22.5892,88.3103,84.2,79,100,6.91,IN,1691642360
155,peddapuram,17.0833,82.1333,89.69,52,90,9.01,IN,1691642360
156,dzhetygara,52.1908,61.2006,66.63,69,94,14.34,KZ,1691642360
157,yanam,16.7333,82.2167,95.0,45,87,7.31,IN,1691642361
158,kiruna,67.8557,20.2251,50.92,87,0,2.3,SE,1691642361
159,mount pearl,47.5166,-52.7813,55.06,94,100,17.27,CA,1691642361
160,weno,7.4515,151.8468,83.46,72,93,5.53,FM,1691642362
161,aktau,43.65,51.2,88.38,43,0,2.21,KZ,1691642362
162,ishurdi,24.1333,89.0833,88.18,65,92,2.55,BD,1691642362
163,chonchi,-42.6128,-73.8092,48.11,95,98,8.63,CL,1691642363
164,shambu,9.5667,37.1,53.33,93,100,1.36,ET,1691642363
165,chegdomyn,51.1167,133.0167,84.04,32,23,2.08,RU,1691642363
166,kununurra,-15.7667,128.7333,87.78,22,53,11.5,AU,1691642088
167,casimiro de abreu,-22.4806,-42.2042,69.58,95,18,4.76,BR,1691642174
168,lichinga,-13.3128,35.2406,53.65,82,0,8.16,MZ,1691642364
169,arawa,-6.2132,155.5367,79.47,90,97,5.21,PG,1691642364
170,kaa-khem,51.6833,94.7333,74.75,38,39,4.94,RU,1691642364
171,pagar alam,-4.0167,103.2667,84.15,51,16,5.1,ID,1691642365
172,laguna,38.421,-121.4238,79.39,56,0,6.91,US,1691642365
173,ouani,-12.1322,44.4258,76.08,74,23,12.17,KM,1691642365
174,lompoc,34.6391,-120.4579,65.01,85,100,4.61,US,1691642365
175,labrador city,52.9463,-66.9114,51.71,100,100,4.61,CA,1691642350
176,queenstown,-31.8976,26.8753,46.89,74,13,4.05,ZA,1691642366
177,chimoio,-19.1164,33.4833,60.66,100,75,5.77,MZ,1691642366
178,sohbatpur,28.5202,68.5434,97.11,42,19,9.71,PK,1691642366
179,nafada,11.0956,11.3327,76.14,82,100,4.92,NG,1691642367
180,wailua homesteads,22.0669,-159.378,86.43,77,75,18.41,US,1691642367
181,port alfred,-33.5906,26.891,57.18,92,0,4.0,ZA,1691642367
182,kosh-agach,50.0,88.6667,65.26,44,22,0.78,RU,1691642368
183,saynshand,44.8824,110.1163,88.77,30,90,11.63,MN,1691642316
184,flying fish cove,-10.4217,105.6791,80.28,69,40,16.11,CX,1691642368
185,port alberni,49.2413,-124.8028,64.24,94,60,4.72,CA,1691642368
186,comodoro rivadavia,-45.8667,-67.5,57.06,62,0,6.91,AR,1691642347
187,merizo village,13.2658,144.6691,84.97,87,100,20.27,GU,1691642369
188,arkhangel'sk,64.5401,40.5433,70.36,69,0,6.62,RU,1691642369
189,college,64.8569,-147.8028,69.78,73,75,10.36,US,1691642369
190,knyaze-volkonskoye,48.4642,135.4567,68.29,80,100,9.26,RU,1691642370
191,conception bay south,47.4999,-52.9981,55.65,95,100,21.81,CA,1691642370
192,cockburn town,21.4612,-71.1419,83.7,80,87,17.9,TC,1691642370
193,al ghayzah,16.2079,52.176,80.58,83,93,6.71,YE,1691642370
194,houghton,47.1219,-88.569,65.82,77,100,6.91,US,1691642371
195,polatli,39.5772,32.1413,70.72,72,0,4.63,TR,1691642371
196,ventimiglia,43.7935,7.6026,74.12,74,0,3.42,IT,1691642371
197,rzhev,56.2624,34.3282,59.49,66,1,3.24,RU,1691642372
198,constantia,44.1833,28.65,66.88,65,77,14.47,RO,1691642373
199,champerico,14.3,-91.9167,81.9,79,62,3.71,GT,1691642373
200,isafjordur,66.0755,-23.124,43.43,83,40,7.02,IS,1691642374
201,guerrero negro,27.9769,-114.0611,70.59,88,4,14.52,MX,1691642374
202,borba,-4.3878,-59.5939,79.23,62,24,2.95,BR,1691642374
203,castillos,-34.1667,-53.8333,58.46,94,100,10.04,UY,1691642266
204,nemuro,43.3236,145.575,68.95,94,100,16.96,JP,1691642375
205,stephenville,32.2207,-98.2023,95.77,33,0,10.36,US,1691642375
206,bechar,31.6167,-2.2167,93.52,11,40,11.5,DZ,1691642375
207,anadyr,64.75,177.4833,57.7,67,40,8.01,RU,1691642375
208,ongjin,37.9347,125.3619,78.17,74,100,17.02,KP,1691642376
209,richards bay,-28.783,32.0377,64.9,77,100,4.59,ZA,1691642288
210,bardai,11.65,7.2333,69.37,95,99,11.14,NG,1691642376
211,urumqi,43.801,87.6005,83.35,35,0,4.47,CN,1691642376
212,siem reap,13.5,104.0,87.55,47,72,7.23,KH,1691642377
213,susuman,62.7833,148.1667,62.2,42,4,1.83,RU,1691642272
214,novodvinsk,64.4165,40.8122,70.32,69,0,6.31,RU,1691642377
215,ponta delgada,37.7333,-25.6667,75.92,94,75,13.8,PT,1691642377
216,pokhara,28.2333,83.9833,80.04,87,76,3.58,NP,1691642176
217,dangriga,16.9692,-88.2321,82.87,85,8,11.18,BZ,1691642378
218,qaqortoq,60.7167,-46.0333,42.76,82,10,1.95,GL,1691642378
219,papatowai,-46.5619,169.4708,40.28,81,56,6.24,NZ,1691642378
220,villa gesell,-37.2639,-56.973,55.06,94,98,14.12,AR,1691642379
221,cabo san lucas,22.8909,-109.9124,85.05,78,20,13.2,MX,1691642379
222,stanley,54.868,-1.6985,61.29,92,40,3.44,GB,1691642380
223,fort mcmurray,56.7268,-111.381,56.79,100,100,10.36,CA,1691642380
224,saipan,15.1355,145.701,80.65,100,100,6.91,MP,1691642380
225,tamanrasset,22.785,5.5228,80.51,29,0,11.5,DZ,1691642284
226,nuriootpa,-34.4833,139.0,57.97,57,66,10.4,AU,1691642381
227,codrington,-38.2667,141.9667,53.55,73,100,12.44,AU,1691642381
228,nueve de julio,-35.4444,-60.8831,47.97,91,100,1.01,AR,1691642381
229,port saint john's,-31.6229,29.5448,60.48,87,27,8.88,ZA,1691642292
230,port elizabeth,-33.918,25.5701,55.69,94,20,5.75,ZA,1691642382
231,fort bragg,35.139,-79.006,76.91,81,0,3.44,US,1691642083
232,naliya,23.2667,68.8333,84.45,70,100,21.52,IN,1691642382
233,macapa,0.0389,-51.0664,80.58,94,40,4.61,BR,1691642382
234,upata,8.0086,-62.3989,73.18,96,99,3.02,VE,1691642383
235,malavalli,12.3833,77.0833,80.46,52,89,5.88,IN,1691642383
236,dunedin,-45.8742,170.5036,40.28,83,43,7.52,NZ,1691642383
237,rawson,-43.3002,-65.1023,60.73,39,95,18.01,AR,1691642383
238,kuala tungkal,-0.8167,103.4667,87.73,55,77,4.99,ID,1691642384
239,kamaishi,39.2667,141.8833,83.14,71,16,13.53,JP,1691642384
240,ola,59.5833,151.2833,71.15,59,16,11.54,RU,1691642384
241,nantucket,41.2835,-70.0995,73.99,70,0,12.66,US,1691642360
242,arraial do cabo,-22.9661,-42.0278,69.49,87,28,19.22,BR,1691642385
243,askoy,60.4092,5.226,51.94,50,75,8.05,NO,1691642385
244,fort st. john,56.2499,-120.8529,64.29,52,75,11.5,CA,1691642363
245,port lincoln,-34.7333,135.8667,57.56,60,46,12.53,AU,1691642386
246,ouadda,8.0777,22.4007,68.54,99,100,1.41,CF,1691642386
247,concepcion,-36.827,-73.0498,53.4,100,100,13.8,CL,1691642376
248,lionel town,17.8101,-77.2406,85.89,88,59,3.51,JM,1691642386
249,byron bay,-28.65,153.6167,73.71,50,2,13.2,AU,1691642387
250,jiazi,22.8779,116.067,89.53,66,25,14.43,CN,1691642387
251,praia da vitoria,38.7333,-27.0667,71.85,94,40,5.14,PT,1691642387
252,gomez farias,23.05,-99.15,76.95,86,16,3.18,MX,1691642387
253,tolanaro,-25.0319,46.9987,66.27,94,40,2.3,MG,1691642388
254,sept-iles,50.2001,-66.3821,57.72,98,100,11.5,CA,1691642388
255,jumla,29.2747,82.1838,68.13,88,100,1.81,NP,1691642344
256,fale old settlement,-9.3852,-171.2468,83.14,77,57,15.32,TK,1691642375
257,kudymkar,59.0173,54.656,68.47,52,8,7.36,RU,1691642389
258,prado,-17.3411,-39.2208,70.29,75,9,5.17,BR,1691642272
259,posto fiscal rolim de moura,-13.0833,-62.2667,77.61,48,33,2.1,BR,1691642390
260,mejit,10.2753,170.8646,82.45,70,62,12.15,MH,1691642390
261,reggane,26.7158,0.1714,91.44,14,0,12.68,DZ,1691642390
262,daru,-9.0763,143.2092,75.63,82,98,19.55,PG,1691642390
263,buka,40.8108,69.1986,93.79,19,0,3.58,UZ,1691642391
264,ilabaya,-17.4208,-70.5133,64.4,47,0,1.16,PE,1691642391
265,menongue,-14.6585,17.691,52.16,50,5,5.3,AO,1691642391
266,ukiah,39.1502,-123.2078,75.09,43,0,4.61,US,1691642391
267,al qitena,14.8648,32.3668,83.98,58,57,17.13,SD,1691642392
268,new norfolk,-42.7826,147.0587,58.5,61,64,8.21,AU,1691642392
269,gospic,44.5461,15.3747,56.89,88,65,4.85,HR,1691642392
270,leshan,29.5623,103.7639,88.84,72,81,2.33,CN,1691642393
271,elko,41.0002,-115.5012,73.63,23,90,5.99,US,1691642393
272,vangaindrano,-23.35,47.6,67.82,90,23,3.71,MG,1691642393
273,nadym,65.5333,72.5167,50.59,69,99,27.09,RU,1691642394
274,fetsund,59.929,11.1625,53.47,96,98,4.61,NO,1691642394
275,kill devil hills,36.0307,-75.676,80.62,80,0,9.22,US,1691642394
276,kingston,17.997,-76.7936,85.15,87,20,6.91,JM,1691642394
277,itamaraca,-7.7478,-34.8256,75.25,79,6,11.34,BR,1691642395
278,bairnsdale,-37.8333,147.6167,56.86,63,93,12.93,AU,1691642395
279,fort campbell north,36.6543,-87.4606,73.02,80,100,15.99,US,1691642395
280,kavieng,-2.5744,150.7967,82.92,75,100,16.04,PG,1691642397
281,utrik,11.2278,169.8474,83.16,71,59,12.35,MH,1691642233
282,margate,51.3813,1.3862,60.69,96,0,1.99,GB,1691642397
283,kargil,34.5667,76.1,67.17,35,17,2.42,IN,1691642398
284,alo,7.4178,6.7371,71.42,98,81,2.86,NG,1691642398
285,la passe,45.5549,-0.8967,67.98,68,9,7.38,FR,1691642398
286,tafuna,-14.3358,-170.72,84.15,84,75,5.75,AS,1691642398
287,bandarbeyla,9.4942,50.8122,81.16,60,85,27.07,SO,1691642399
288,at taj,24.2049,23.2857,84.25,30,2,10.09,LY,1691642399
289,parral,26.9333,-105.6667,72.37,55,56,11.34,MX,1691642181
290,zalari,53.5584,102.5065,77.16,42,99,10.76,RU,1691642399
291,maryborough,-25.5333,152.7,73.35,36,6,6.58,AU,1691642400
292,limassol,34.675,33.0333,80.67,78,20,1.14,CY,1691642400
293,kuching,1.55,110.3333,95.13,67,40,2.3,MY,1691642137
294,padang,-0.9492,100.3543,86.05,82,66,5.5,ID,1691642240
295,kourou,5.1552,-52.6478,75.25,91,20,7.16,GF,1691642401
296,paradip garh,20.3167,86.6167,91.42,52,56,7.27,IN,1691642401
297,yemva,62.59,50.8594,72.01,51,1,3.4,RU,1691642388
298,nordheim,49.1063,9.1219,56.48,99,7,1.63,DE,1691642402
299,shetpe,44.1667,52.1167,87.58,40,0,8.12,KZ,1691642402
300,ishigaki,24.3448,124.1572,87.93,84,20,9.22,JP,1691642403
301,cole harbour,44.6724,-63.4751,67.39,93,86,10.36,CA,1691642304
302,cheremushki,52.8356,91.3944,76.51,41,55,2.06,RU,1691642403
303,san antonio de pale,-1.4014,5.6325,74.5,78,94,12.01,GQ,1691642404
304,torrington,41.8007,-73.1212,68.54,91,17,2.75,US,1691642404
305,aldan,58.6031,125.3894,79.11,42,10,14.72,RU,1691642404
306,guatrache,-37.6678,-63.5302,53.55,63,100,16.62,AR,1691642405
307,ancud,-41.8697,-73.8203,50.04,91,100,15.7,CL,1691642239
308,luena,-11.7833,19.9167,52.2,49,9,4.74,AO,1691642405
309,tara,56.8944,74.371,62.06,57,97,5.88,RU,1691642405
310,cambria,35.5641,-121.0808,64.78,94,26,2.89,US,1691642228
311,bam,29.106,58.357,91.4,15,15,13.78,IR,1691642406
312,kapuskasing,49.4169,-82.4331,59.09,88,100,6.91,CA,1691642406
313,juegang,32.3174,121.1855,86.29,67,7,12.93,CN,1691642406
314,san julian,21.0167,-102.1667,58.03,94,100,2.35,MX,1691642407
315,yuzhno-kurilsk,44.0306,145.8556,71.35,90,100,14.32,RU,1691642407
316,palmas,-10.2128,-48.3603,75.07,60,0,1.14,BR,1691642407
317,emerald,-23.5333,148.1667,74.34,38,0,5.19,AU,1691642408
318,lengshuijiang,27.6881,111.4294,92.05,51,1,6.04,CN,1691642408
319,obsharovka,53.125,48.8531,79.7,36,0,1.99,RU,1691642408
320,belousovka,50.1339,82.5239,77.85,44,22,8.95,KZ,1691642408
321,bac kan,22.1333,105.8333,82.53,94,98,0.81,VN,1691642409
322,klyuchi,52.2667,79.1667,83.93,28,86,6.71,RU,1691642297
323,cromwell,41.5951,-72.6454,72.64,88,0,0.0,US,1691642408
324,usinsk,65.9939,57.5281,60.98,59,3,9.82,RU,1691642410
325,mani,4.8172,-72.2886,75.2,84,89,3.56,CO,1691642410
326,qamdo,31.1667,97.2333,64.74,42,87,5.32,CN,1691642410
327,hammerfest,70.6634,23.6821,72.05,64,0,2.3,NO,1691642410
328,ojuelos de jalisco,21.8667,-101.5833,60.06,79,79,12.88,MX,1691642411
329,lai chau,22.3997,103.4517,75.92,91,100,1.88,VN,1691642411
330,troitsko-pechorsk,62.7084,56.1964,67.39,53,84,6.22,RU,1691642411
331,luanda,-8.8368,13.2343,66.2,88,37,1.14,AO,1691642411
332,sao jose da coroa grande,-8.8978,-35.1478,73.44,78,5,7.54,BR,1691642376
333,agat village,13.3886,144.6585,85.35,80,0,11.5,GU,1691642412
334,nar'yan-mar,67.6713,53.087,61.41,66,0,6.58,RU,1691642412
335,miquelon,47.0975,-56.3814,59.0,94,100,34.72,PM,1691642412
336,temerluh,3.4506,102.4176,83.98,89,96,1.01,MY,1691642153
337,galliano,29.4422,-90.2992,86.0,70,0,6.91,US,1691642413
338,walvis bay,-22.9575,14.5053,56.08,82,90,2.64,NA,1691642355
339,yur'yevets,57.3201,43.1041,68.47,67,20,6.91,RU,1691642414
340,santa cruz,-17.8,-63.1667,71.06,83,12,8.05,BO,1691642275
341,lorengau,-2.0226,147.2712,81.88,81,95,17.05,PG,1691642414
342,bodden town,19.2833,-81.25,85.93,90,23,11.25,KY,1691642414
343,trancas,-26.2314,-65.2803,55.89,57,38,2.59,AR,1691642415
344,chaeryong-up,38.3992,125.6156,77.38,77,100,16.82,KP,1691642415
345,baiao,-2.7906,-49.6717,71.38,98,57,2.77,BR,1691642415
346,sayalkudi,9.1833,78.45,88.05,58,100,1.21,IN,1691642416
347,chhor,25.5167,69.7667,91.8,51,21,20.94,PK,1691642416
348,anajatuba,-3.2644,-44.6197,72.48,98,61,3.78,BR,1691642416
349,gaspe,48.8334,-64.4819,61.02,100,100,12.66,CA,1691642146
350,vilyuchinsk,52.9306,158.4028,70.07,71,15,4.88,RU,1691642345
351,kyaukse,21.6,96.1333,83.03,70,100,11.27,MM,1691642417
352,forster,-32.1667,152.5167,73.29,36,6,2.66,AU,1691642417
353,palamos,41.8484,3.1291,76.28,46,35,1.99,ES,1691642417
354,mlawa,53.1128,20.3841,54.63,79,100,5.03,PL,1691642418
355,zhelezinka,53.54,75.3072,82.18,29,5,7.58,KZ,1691642418
356,waspan,14.7419,-83.9717,76.33,94,90,2.59,NI,1691642418
357,northam,51.0333,-4.2167,61.61,84,2,11.14,GB,1691642419
358,hithadhoo,-0.6,73.0833,81.28,74,73,5.95,MV,1691642258
359,holualoa,19.6228,-155.9522,82.24,72,75,8.05,US,1691642419
360,tarrafal de sao nicolau,16.5667,-24.3667,77.65,73,84,15.48,CV,1691642419
361,saudarkrokur,65.7461,-19.6394,42.66,86,78,9.19,IS,1691642420
362,jiexiu,37.0244,111.9125,92.95,34,34,4.14,CN,1691642352
363,sao pedro do sul,-29.6206,-54.1789,54.55,99,53,3.27,BR,1691642420
364,cabedelo,-6.9811,-34.8339,72.27,83,40,12.5,BR,1691642421
365,nyagan,62.1406,65.3936,63.95,50,8,12.08,RU,1691642421
366,kolondieba,11.0882,-6.8926,70.47,95,100,5.39,ML,1691642421
367,pohang,36.0322,129.365,77.27,85,100,20.13,KR,1691642422
368,khandyga,62.6667,135.6,78.33,30,38,3.49,RU,1691642422
369,taitung city,22.7583,121.1444,89.87,79,75,6.91,TW,1691642422
370,jayapura,-2.5333,140.7,92.59,72,47,7.81,ID,1691642422
371,china,25.7,-99.2333,83.86,67,4,26.51,MX,1691642423
372,nogamerzin-yurt,43.6536,44.8889,87.46,46,5,5.84,RU,1691642423
373,taulaga,-11.0553,-171.0883,82.47,79,91,16.42,AS,1691642423
374,agria,47.9026,20.3733,60.71,82,71,2.57,HU,1691642424
375,doume,4.2333,13.45,66.49,99,96,2.68,CM,1691642424
376,sydney,-33.8679,151.2073,74.61,30,0,26.46,AU,1691642424
377,lata,40.1629,-8.3327,61.92,95,51,2.68,PT,1691642424
378,mlowo,-9.0,32.9833,55.09,79,0,3.4,TZ,1691642425
379,taguatinga,-12.3857,-46.5711,76.66,40,49,9.37,BR,1691642425
380,bakchar,57.0186,82.0711,56.55,85,100,7.78,RU,1691642425
381,bulata,9.8599,122.4016,84.51,74,73,10.36,PH,1691642425
382,manavalakurichi,8.1333,77.3,85.68,66,91,14.65,IN,1691642426
383,usogorsk,63.4106,48.6872,74.23,55,9,1.16,RU,1691642426
384,porto novo,6.4965,2.6036,76.82,87,100,7.11,BJ,1691642426
385,mil'kovo,55.6078,37.7956,63.91,64,36,7.65,RU,1691642239
386,dudinka,69.4058,86.1778,63.63,54,100,23.4,RU,1691642427
387,barra do garcas,-15.89,-52.2567,71.4,30,1,0.94,BR,1691642427
388,hasaki,35.7333,140.8333,93.31,72,50,8.3,JP,1691642295
389,altai,46.3722,96.2583,63.9,52,9,9.75,MN,1691642428
390,kukmor,56.1855,50.8944,76.08,50,6,5.37,RU,1691642428
391,luwuk,-0.9516,122.7875,83.21,71,69,9.24,ID,1691642428
392,nuku'alofa,-21.1333,-175.2,75.54,88,75,9.22,TO,1691642428
393,puerto baquerizo moreno,-0.9,-89.6,74.39,82,83,8.43,EC,1691642429
394,khromtau,50.2503,58.4347,72.57,48,1,23.6,KZ,1691642429
395,laza,46.65,27.5833,67.24,50,100,2.66,RO,1691642429
396,bodo,67.28,14.405,61.95,67,0,17.27,NO,1691642429
397,galesong,-5.3166,119.3661,89.62,61,52,7.65,ID,1691642430
398,darwin,-12.4611,130.8418,87.78,30,0,12.66,AU,1691642430
399,aragarcas,-15.8975,-52.2508,71.44,30,1,0.98,BR,1691642230
400,pacific grove,36.6177,-121.9166,60.37,90,100,3.0,US,1691642430
401,kashgar,39.4547,75.9797,87.01,20,40,13.42,CN,1691642431
402,natal,-5.795,-35.2094,74.05,94,40,5.75,BR,1691642431
403,veselynove,47.3567,31.2349,67.39,56,34,11.03,UA,1691642431
404,kerikeri,-35.2268,173.9474,57.9,77,32,1.01,NZ,1691642432
405,vieux fort,13.7167,-60.95,81.72,83,20,8.05,LC,1691642432
406,decorah,43.3033,-91.7857,65.32,100,100,0.0,US,1691642168
407,warrnambool,-38.3833,142.4833,53.33,72,100,15.32,AU,1691642314
408,manado,1.487,124.8455,93.97,49,40,10.36,ID,1691642432
409,rolla,37.9514,-91.7713,70.21,94,0,0.0,US,1691642433
410,ghadamis,30.1337,9.5007,80.29,28,0,9.98,LY,1691642433
411,mbuji-mayi,-6.15,23.6,75.92,35,88,3.6,CD,1691642433
412,udachny,66.4167,112.4,64.45,55,94,17.56,RU,1691642277
413,horsham,51.064,-0.3272,59.61,86,0,2.3,GB,1691642434
414,alamosa,37.4695,-105.87,73.38,18,75,9.22,US,1691642434
415,pangody,65.85,74.4859,56.34,62,77,23.6,RU,1691642434
416,turpan,42.9333,89.1667,102.02,17,2,4.97,CN,1691642435
417,island harbour,50.724,-1.2758,61.93,95,0,1.99,GB,1691642435
418,troy,42.6056,-83.1499,75.13,76,0,3.44,US,1691642148
419,mandalgovi,45.7625,106.2708,79.38,35,77,4.7,MN,1691642435
420,novyy urengoy,66.0833,76.6333,48.02,86,98,21.5,RU,1691642436
421,cine,37.6117,28.0614,71.01,73,0,1.12,TR,1691642436
422,kavalerovo,44.2661,135.0572,63.57,100,100,0.92,RU,1691642436
423,gebeit,21.0667,36.3167,92.77,15,2,4.34,SD,1691642436
424,bom jesus,-9.0744,-44.3586,66.7,70,1,2.62,BR,1691642437
425,biltine,14.5333,20.9167,74.89,80,100,5.1,TD,1691642437
426,ialibu,-6.2821,143.9935,59.27,91,98,3.29,PG,1691642437
427,areia branca,-4.9561,-37.1369,72.1,82,40,11.41,BR,1691642438
428,xai-xai,-25.0519,33.6442,67.96,68,99,7.47,MZ,1691642300
429,sarangani,5.4033,125.4636,83.14,74,96,17.52,PH,1691642438
430,al kharijah,25.4514,30.5464,86.4,22,0,10.25,EG,1691642439
431,papao,-17.75,-149.55,77.67,71,68,17.07,PF,1691642439
432,inarajan village,13.2736,144.7484,85.39,87,100,19.77,GU,1691642352
433,franceville,-1.6333,13.5836,70.97,78,53,1.36,GA,1691642440
434,greymouth,-42.4667,171.2,45.14,61,0,5.23,NZ,1691642275
435,namibe,-15.1961,12.1522,59.5,89,13,7.99,AO,1691642440
436,ulladulla,-35.35,150.4667,61.21,47,67,15.19,AU,1691642440
437,arvayheer,46.2639,102.775,78.17,28,26,8.5,MN,1691642441
438,okhotsk,59.3833,143.3,62.6,67,12,9.69,RU,1691642310
439,vallenar,-28.5708,-70.7581,54.59,72,100,4.92,CL,1691642441
440,renqiu,38.6989,116.0936,86.79,60,84,6.08,CN,1691642442
441,al hufuf,25.3646,49.5653,91.74,21,0,3.44,SA,1691642442
442,newport,51.5877,-2.9984,61.34,89,37,3.67,GB,1691642442
443,arias,-33.6441,-62.4027,57.6,73,100,12.33,AR,1691642443
444,tazacorte,28.629,-17.9293,76.17,53,0,17.27,ES,1691642443
445,dilling,12.05,29.65,74.25,80,92,5.77,SD,1691642443
446,lamu,-2.2717,40.902,75.42,79,67,11.65,KE,1691642444
447,vadso,70.0744,29.7487,70.68,77,0,0.0,NO,1691642444
448,berezovyy,51.6667,135.7,73.27,49,97,4.88,RU,1691642444
449,akureyri,65.6835,-18.0878,46.33,76,100,2.3,IS,1691642444
450,palikir - national government center,6.9248,158.1611,88.54,74,75,11.5,FM,1691642445
451,remire-montjoly,4.9167,-52.2667,75.24,94,75,0.0,GF,1691642445
452,palmer,42.1584,-72.3287,69.17,77,0,0.0,US,1691642445
453,lospalos,-8.5186,127.0025,77.95,59,81,13.47,TL,1691642446
454,escalon,37.7974,-120.9966,81.1,60,0,12.66,US,1691642446
455,banikoara,11.2985,2.4386,71.64,97,100,6.8,BJ,1691642446
456,argo,37.6333,22.7333,74.79,63,0,2.53,GR,1691642447
457,kenai,60.5544,-151.2583,57.29,93,100,6.91,US,1691642447
458,chios,38.3678,26.1358,75.06,73,20,11.5,GR,1691642447
459,christchurch,-43.5333,172.6333,45.48,68,100,16.11,NZ,1691642282
460,rouissat,31.9243,5.3502,86.07,26,0,4.61,DZ,1691642448
461,andreapol',56.6513,32.2664,59.65,58,3,3.31,RU,1691642448
462,santana,-0.0583,-51.1817,80.78,94,40,4.61,BR,1691642200
463,natchez,31.5604,-91.4032,85.24,74,0,10.36,US,1691642448
464,atasu,48.6814,71.6433,75.07,53,99,7.9,KZ,1691642449
465,arno,60.1167,18.6333,57.78,92,100,15.5,SE,1691642449
466,moroni,-11.7022,43.2551,69.8,73,20,3.44,KM,1691642449
467,crane,31.3974,-102.3501,88.93,27,39,6.87,US,1691642449
468,maumelle,34.8668,-92.4043,80.73,88,95,5.99,US,1691642450
469,dakhla,23.6848,-15.958,68.54,93,25,21.63,EH,1691642450
470,lihue,21.9789,-159.3672,87.04,71,75,18.41,US,1691642450
471,aykhal,66.0,111.5,73.74,56,67,16.06,RU,1691642297
472,saint-pierre,-21.3393,55.4781,73.56,64,20,6.91,RE,1691642373
473,prince rupert,54.3161,-130.3201,59.09,96,100,12.66,CA,1691642451
474,kenora,49.8167,-94.4337,56.37,76,40,5.75,CA,1691642451
475,penzance,50.1186,-5.5371,61.48,94,35,10.27,GB,1691642452
476,harstad,68.799,16.5293,64.62,62,25,1.01,NO,1691642452
477,sarpol-e zahab,34.4611,45.8626,102.15,12,0,3.13,IR,1691642452
478,magadan,59.5667,150.8,70.54,60,12,9.66,RU,1691642452
479,mikuni,36.2171,136.1519,100.31,41,2,19.24,JP,1691642453
480,vuktyl,63.8567,57.3094,64.8,55,28,8.99,RU,1691642453
481,thunder bay,48.4001,-89.3168,60.78,77,100,6.91,CA,1691642400
482,takoradi,4.8845,-1.7554,74.77,87,100,10.07,GH,1691642453
483,chernyshevskiy,63.0128,112.4714,76.51,57,34,6.06,RU,1691642454
484,lewistown,40.5992,-77.5714,69.33,88,0,0.0,US,1691642454
485,zeya,53.75,127.2667,83.08,35,5,6.13,RU,1691642454
486,hailar,49.2,119.7,75.13,57,49,5.73,CN,1691642454
487,port blair,11.6667,92.75,87.84,74,40,11.5,IN,1691642455
488,kabin buri,13.9511,101.7177,92.5,61,42,7.56,TH,1691642455
489,lagos,6.5833,3.75,77.32,93,100,4.63,NG,1691642400
490,nkhotakota,-12.9274,34.2961,65.95,64,8,11.18,MW,1691642455
491,bayanhongor,46.7167,100.1167,68.65,41,75,6.53,MN,1691642456
492,wake village,33.4268,-94.1063,87.91,58,0,12.66,US,1691642456
493,chibougamau,49.9168,-74.3659,60.42,82,75,2.3,CA,1691642362
494,maryville,35.7565,-83.9705,72.66,94,100,8.05,US,1691642294
495,piton saint-leu,-21.2196,55.3151,70.39,64,0,5.75,RE,1691642457
496,zholymbet,51.7433,71.7122,77.34,34,100,12.93,KZ,1691642457
497,sisak,45.4661,16.3783,55.38,92,75,2.37,HR,1691642457
498,llallagua,-18.4167,-66.6333,40.35,28,0,5.99,BO,1691642457
499,ndjole,-0.1783,10.7649,72.54,85,94,3.15,GA,1691642458
500,edd,13.9297,41.6925,96.17,44,61,2.48,ER,1691642458
501,slantsy,59.1182,28.0914,60.33,68,6,5.39,RU,1691642458
502,kalawit,8.0667,122.5167,85.66,71,63,9.55,PH,1691642458
503,la'ie,21.6477,-157.9253,84.16,71,6,18.68,US,1691642459
504,mayya,61.7333,130.2811,67.32,34,51,8.41,RU,1691642459
505,valparaiso,-33.0393,-71.6273,53.24,87,75,5.75,CL,1691642299
506,gadzhiyevo,69.2551,33.3362,67.73,69,2,6.85,RU,1691642300
507,aguas vermelhas,-15.7472,-41.46,56.59,99,25,3.09,BR,1691642242
508,lockwood,45.8191,-108.4149,80.49,49,40,8.05,US,1691642460
509,igrim,63.1906,64.4162,59.83,60,84,8.63,RU,1691642460
510,vilcun,-38.65,-72.2333,47.14,90,100,11.23,CL,1691642460
511,vega de alatorre,20.0333,-96.6333,81.77,83,8,11.48,MX,1691642461
512,barah,13.7,30.3667,80.71,64,82,11.05,SD,1691642461
513,burutu,5.3509,5.5076,75.56,88,99,5.06,NG,1691642336
514,kuraymah,18.55,31.85,89.46,44,33,7.45,SD,1691642462
515,delvada,20.7667,71.0333,83.32,75,99,17.29,IN,1691642462
516,qarqaraly,49.4058,75.4742,76.03,45,99,11.25,KZ,1691642462
517,alnwick,55.4132,-1.7056,60.89,94,100,3.44,GB,1691642462
518,issia,6.4922,-6.5856,69.69,98,100,4.74,CI,1691642463
519,bokoro,12.3807,17.0568,73.02,91,100,4.34,TD,1691642463
520,salym,60.0625,71.4789,61.66,52,1,13.27,RU,1691642422
521,zhumysker,49.3333,49.4,80.53,37,0,13.02,KZ,1691642464
522,motueka,-41.1333,173.0167,42.17,89,58,2.26,NZ,1691642464
523,port augusta,-32.5,137.7667,60.75,51,0,11.72,AU,1691642465
524,rayachoti,14.05,78.75,85.6,56,100,7.94,IN,1691642465
525,paysandu,-32.3214,-58.0756,53.87,96,50,7.92,UY,1691642465
526,san antonio oeste,-40.7319,-64.9477,54.81,50,99,15.61,AR,1691642466
527,baki,-7.6128,110.7839,89.69,39,24,7.61,ID,1691642466
528,surigao,9.7839,125.4889,86.65,67,97,13.15,PH,1691642466
529,moramanga,-18.9333,48.2,60.28,85,64,2.19,MG,1691642466
530,mihaileni,47.9667,26.15,63.48,100,100,1.86,RO,1691642467
531,karakulino,56.012,53.7067,74.68,57,11,8.66,RU,1691642467
532,solwezi,-12.1688,26.3894,51.55,53,1,4.97,ZM,1691642467
533,tibiri,13.5627,7.0485,77.18,80,76,10.56,NE,1691642468
534,ad darb,17.7229,42.2526,93.38,45,28,13.29,SA,1691642468
535,port macquarie,-31.4333,152.9167,71.89,36,28,6.17,AU,1691642427
536,whakatane,-37.9585,176.9854,53.51,87,95,1.01,NZ,1691642468
537,pionerskiy,54.9508,20.2275,53.74,86,96,15.23,RU,1691642469
538,canals,38.9625,-0.5844,77.58,81,6,2.37,ES,1691642469
539,chengde,40.9725,117.9361,85.96,49,96,6.4,CN,1691642469
540,quixeramobim,-5.1992,-39.2928,68.88,86,11,2.77,BR,1691642469
541,langarud,37.197,50.1535,80.65,53,0,1.59,IR,1691642470
542,levelland,33.5873,-102.378,84.18,37,6,11.05,US,1691642470
543,madang,-5.2246,145.7966,82.9,71,44,9.57,PG,1691642416
544,vanimo,-2.6741,141.3028,84.27,74,60,8.08,PG,1691642470
545,mirny,62.5353,113.9611,77.23,44,44,7.0,RU,1691642471
546,bikenibeu village,1.3673,173.1241,89.56,66,20,4.61,KI,1691642471
547,ayvalik,39.3191,26.6954,75.16,68,3,9.95,TR,1691642471
548,vernon,50.2581,-119.2691,73.76,40,19,3.44,CA,1691642172
549,moyale,3.5167,39.0584,64.74,68,98,12.35,KE,1691642472
550,yaren,-0.5472,166.916,83.01,71,44,4.12,NR,1691642472
551,sao felix do xingu,-6.6447,-51.995,76.46,65,71,1.39,BR,1691642472
552,gudermes,43.3569,46.1053,83.64,34,0,1.52,RU,1691642472
553,kabansk,52.0486,106.6528,63.72,91,100,11.01,RU,1691642473
554,lentvaris,54.65,25.05,58.03,95,100,5.75,LT,1691642473
555,aitape,-3.1374,142.3475,84.69,74,60,9.37,PG,1691642473
556,nicoya,10.1483,-85.452,76.95,91,46,0.58,CR,1691642474
557,bouarfa,32.53,-1.95,81.93,23,47,5.28,MA,1691642474
558,rio grande,-32.035,-52.0986,59.95,97,100,12.41,BR,1691642474
559,puerto deseado,-47.7503,-65.8938,48.83,80,100,5.26,AR,1691642475
560,dedza,-14.3779,34.3332,49.32,81,5,3.56,MW,1691642475
561,sisimiut,66.9395,-53.6735,40.96,90,100,8.3,GL,1691642475
562,yunyang,33.4474,112.7142,91.74,52,9,5.93,CN,1691642475
563,kirensk,57.7853,108.1119,64.54,97,100,4.76,RU,1691642476
564,tromso,69.6496,18.957,65.37,82,40,2.3,NO,1691642476
565,owando,-0.4819,15.8999,71.64,84,98,2.89,CG,1691642476
566,antelope,38.7082,-121.3299,77.22,55,0,10.36,US,1691642476
567,north adams,42.7009,-73.1087,65.68,91,0,0.0,US,1691642477
568,la sarre,48.8002,-79.1996,54.21,96,51,5.66,CA,1691642477
569,tinajo,29.0788,-13.7081,74.28,78,0,32.21,ES,1691642477
570,raja,8.4596,25.678,69.57,97,91,2.75,SS,1691642477
571,lukolela,-1.0605,17.1821,69.1,87,79,1.79,CD,1691642478
572,olinda,-8.0089,-34.8553,74.93,83,40,6.91,BR,1691642478
573,taoudenni,22.6783,-3.9836,93.99,31,44,1.28,ML,1691642478
